{"type":"FeatureCollection","features":[{"type":"Feature","properties":{"Address":"2134 Grove Street (now Martin Luther King, Jr. Way)","Architect + Date":"John Bakewell Jr. & Arthur M. Brown Jr. (1907)","Link":"https://berkeleyheritage.com/berkeley_landmarks/city_hall.html","Designated":"15 Dec 1975","Notes":"Civic Center Historic District; #81000142, National Register of Historic Places (1998)"},"geometry":{"coordinates":[-122.27317999999974,37.86978044359067],"type":"Point"}},{"type":"Feature","properties":{"Address":"2307 Piedmont Avenue","Architect + Date":"Charles Sumner Greene & Henry Mather Greene (1908–10)","Link":"https://thorsenhouse.org/","Designated":"15 Dec 1975","Notes":"\t#78000647, National Register of Historic Places (1978)"},"geometry":{"coordinates":[-122.25184700000003,37.86916234155797],"type":"Point"}},{"type":"Feature","properties":{"Link":"https://berkeleyheritage.com/berkeley_landmarks/images/Fred_Turner_Bldg1.jpg","Address":"2546 Bancroft Way","Architect + Date":"Julia Morgan (1940)","Designated":"21 Dec 1981","Notes":"NA"},"geometry":{"coordinates":[-122.25794100000039,37.86876746382815],"type":"Point"}},{"type":"Feature","properties":{"Link":"https://berkeleyheritage.com/berkeley_landmarks/images/public_library.jpg","Address":"\t2090 Kittredge Street at Shattuck Avenue","Architect + Date":"James W. Plachek (1930)","Designated":"19 Apr 1982","Notes":"#82002156, National Register of Historic Places (1982)"},"geometry":{"coordinates":[-122.26852500000018,37.868221055408156],"type":"Point"}},{"type":"Feature","properties":{"Address":"\t2966 College Avenue","Architect + Date":" Avenue\tWilliam Dufour (1914); Alexander Aimwell Cantin & Alexander Mackenzie Cantin (1946)","Link":"https://berkeleyheritage.com/berkeley_landmarks/images/Elmwood_Theater.jpg","Designated":"24 May 1982","Notes":"CA State Historic Resources Inventory"},"geometry":{"coordinates":[-122.25324927116381,37.8567111183925],"type":"Point"}},{"type":"Feature","properties":{"Address":"2955 Claremont Avenue","Architect + Date":"James W. Plachek (1915)","Link":"https://berkeleyheritage.com/berkeley_landmarks/images/John_Muir_School3.jpg","Designated":"18 Jul 1983","Notes":"CA State Historic Resources Inventory"},"geometry":{"coordinates":[-122.24508272883622,37.857363059984365],"type":"Point"}},{"type":"Feature","properties":{"Address":"2000 Allston Way","Architect + Date":"\tOscar Wenderoth (1914)","Link":"https://berkeleyheritage.com/berkeley_landmarks/images/Post_Office.jpg","Designated":"16 Jun 1980","Notes":"\tCivic Center Historic District; #81000144, National Register of Historic Places (1982)"},"geometry":{"coordinates":[-122.27000772883513,37.86883358560833],"type":"Point"}},{"type":"Feature","properties":{"Address":"2315 Durant Avenue","Architect + Date":"Julia Morgan (1929–30)","Link":"https://berkeleyheritage.com/berkeley_landmarks/city_club1.html","Designated":"15 Dec 1975","Notes":"\tCalifornia Historic Landmark No. 908 #77000282, National Register of Historic Places (1977)"},"geometry":{"coordinates":[-122.26271900000008,37.8675846466261],"type":"Point"}}]}